{
  "type": "FeatureCollection",
  "metadata": {
    "country": "Morocco",
    "layer": "digital",
    "compiled": "2026-04-17",
    "notes": "Data centers, announced hyperscale projects, and submarine cable landings. Capacity estimates for announced projects = headline figures, not energised capacity. See DATA_SOURCES.md."
  },
  "features": [
    { "type": "Feature", "geometry": { "type": "Point", "coordinates": [-7.58, 33.37] },
      "properties": { "id": "naver-nvidia-nouaceur", "name": "Naver × Nvidia AI Campus",
        "operator": "Naver / Nvidia consortium", "capacity_estimate_mw": 500,
        "investment_usd": 1.2e9, "status": "announced", "year": 2028,
        "category": "hyperscale", "precision": "approximate",
        "source": "Reuters · DCD 2025", "source_url": "https://www.datacenterdynamics.com/" }},
    { "type": "Feature", "geometry": { "type": "Point", "coordinates": [-5.37, 35.57] },
      "properties": { "id": "iozera-tetouan", "name": "Iozera AI Hub — Eureka Park",
        "operator": "Iozera", "capacity_estimate_mw": 386,
        "investment_usd": 5.0e8, "status": "announced", "year": 2027,
        "category": "hyperscale", "precision": "approximate",
        "source": "DCD · Iozera", "source_url": "https://www.datacenterdynamics.com/" }},
    { "type": "Feature", "geometry": { "type": "Point", "coordinates": [-15.93, 23.71] },
      "properties": { "id": "dakhla-sovereign-dc", "name": "Dakhla Sovereign Data Center",
        "operator": "Government of Morocco", "capacity_estimate_mw": 500,
        "investment_usd": 4.0e8, "status": "announced", "year": 2028,
        "category": "government", "precision": "approximate",
        "source": "MIICEN · Reuters", "source_url": "https://www.mcinet.gov.ma/" }},
    { "type": "Feature", "geometry": { "type": "Point", "coordinates": [-6.86, 33.98] },
      "properties": { "id": "rabat-technopolis-dc", "name": "Rabat Technopolis Data Center",
        "operator": "ADD (Agence de Développement du Digital)", "capacity_estimate_mw": 50,
        "investment_usd": 9.0e7, "status": "construction", "year": 2026,
        "category": "government", "precision": "exact",
        "source": "ADD · MIICEN", "source_url": "https://www.add.gov.ma/" }},
    { "type": "Feature", "geometry": { "type": "Point", "coordinates": [-7.54, 33.61] },
      "properties": { "id": "nplusone-casa", "name": "N+ONE Casablanca — Aïn Sebaâ",
        "operator": "N+ONE", "capacity_estimate_mw": 8,
        "status": "operational", "year": 2019,
        "category": "colocation", "precision": "approximate",
        "source": "datacentermap.com", "source_url": "https://www.datacentermap.com/morocco/" }},
    { "type": "Feature", "geometry": { "type": "Point", "coordinates": [-6.83, 34.01] },
      "properties": { "id": "nplusone-rabat", "name": "N+ONE Rabat",
        "operator": "N+ONE", "capacity_estimate_mw": 5,
        "status": "operational", "year": 2021,
        "category": "colocation", "precision": "approximate",
        "source": "datacentermap.com", "source_url": "https://www.datacentermap.com/morocco/" }},
    { "type": "Feature", "geometry": { "type": "Point", "coordinates": [-7.65, 33.55] },
      "properties": { "id": "inwi-casa", "name": "inwi Casablanca Data Center",
        "operator": "inwi", "capacity_estimate_mw": 6,
        "status": "operational", "year": 2017,
        "category": "telco", "precision": "approximate",
        "source": "inwi press", "source_url": "https://www.inwi.ma/" }},
    { "type": "Feature", "geometry": { "type": "Point", "coordinates": [-6.85, 33.97] },
      "properties": { "id": "iam-rabat-technopolis", "name": "Maroc Telecom DC — Rabat Technopolis",
        "operator": "Maroc Telecom (IAM)", "capacity_estimate_mw": 10,
        "status": "operational", "year": 2020,
        "category": "telco", "precision": "approximate",
        "source": "IAM press", "source_url": "https://www.iam.ma/" }},
    { "type": "Feature", "geometry": { "type": "Point", "coordinates": [-7.60, 33.60] },
      "properties": { "id": "2africa-casa-landing", "name": "2Africa Cable — Casablanca landing",
        "operator": "Meta-led consortium (WIOCC / others)", "capacity_estimate_mw": null,
        "status": "operational", "year": 2024,
        "category": "cable_landing", "precision": "exact",
        "source": "TeleGeography", "source_url": "https://www.submarinecablemap.com/submarine-cable/2africa" }},
    { "type": "Feature", "geometry": { "type": "Point", "coordinates": [-9.60, 30.40] },
      "properties": { "id": "ace-agadir-landing", "name": "ACE Cable — Agadir landing",
        "operator": "Orange-led consortium", "capacity_estimate_mw": null,
        "status": "operational", "year": 2012,
        "category": "cable_landing", "precision": "exact",
        "source": "TeleGeography", "source_url": "https://www.submarinecablemap.com/submarine-cable/africa-coast-to-europe-ace" }}
  ]
}
